[
{
"parkId":"2",
"parkName":"Wildwood Park",
"streetAddress":"1101 23rd Ave SE",
"city":"Puyallup",
"ZipCode":"98374",
"county":"Pierce",
"latitude":"4.7171212",
"longitude":"-1.222781745",
"feature":" BBQ/Grill, Disabled Access, Hiking, Multi-Purpose Room Rental, Picnic Area, Playground, Restrooms, Stream or Creek, Toddler Playground, Walking Trail, Waterfall"
},
{
"parkId":"3",
"parkName":"Allan Yorke Park",
"streetAddress":"7203 West Tapps Hwy E",
"city":"Bonney Lake",
"zipCode":"98391",
"county":"Pierce",
"latitude":"4.71897496",
"longitude":"-1.221654507",
"feature":" Baseball Field, Basketball Court, BBQ/Grill, Beach, Boat Launch, Concessions, Disabled Access, Dock Access, Fishing, Lake, Lighted Tennis Courts, Picnic Area, Playground, Restrooms, Skate Park, Soccer Field, Stage, Stream or Creek, Tennis Court, Volleyball, Walking Trail"
},
{
"parkId":"4",
"parkName":"DeCoursey Park",
"streetAddress":"1998 7th Ave SW",
"city":"Puyallup",
"zipCode":"98371",
"county":"Pierce",
"latitude":"4.7186785",
"longitude":"-1.223197859",
"feature":" Baseball Field, BBQ/Grill, Dock Access, Excersize Path, Fishing, Hiking, Off Leash Dog Park, Picnic Area, Playground, Pond, Restrooms, Stream or Creek, Tennis Court, Toddler Playground, Walking Trail"
},
{
"parkId":"6",
"parkName":"Bradley Lake Park",
"streetAddress":"2791 7th St SE",
"city":"Puyallup",
"zipCode":"98374",
"county":"Pierce",
"latitude":"4.71610869",
"longitude":"-1.222841332",
"feature":" Baseball Field, BBQ/Grill, Disabled Access, Dock Access, Fishing, Lake, Picnic Area, Playground, Restrooms, Walking Trail"
},
{
"parkId":"7",
"parkName":"Spanaway Park",
"streetAddress":"14905 Bresemann Blvd S",
"city":"Spanaway",
"zipCode":"98387",
"county":"Pierce",
"latitude":"4.71164915",
"longitude":"-1.224441807",
"feature":" Access Fee, Basketball Court, BBQ/Grill, Beach, Boat Launch, Boat Rentals, Disabled Access, Dock Access, Fishing, Lake, Picnic Area, Playground, Restrooms, Tennis Court, Walking Trail"
},
{
"parkId":"9",
"parkName":"Auburn Game Farm Park",
"streetAddress":"3030 R St SE",
"city":"Auburn",
"zipCode":"98002",
"county":"King",
"latitude":"4.7280441",
"longitude":"-1.222054517",
"feature":" Ampitheater, Baseball Field, Basketball Court, BBQ/Grill, Concessions, Disabled Access, Fishing, Lighted Tennis Courts, Picnic Area, Playground, Restrooms, River, Soccer Field, Stage, Tennis Court, Volleyball, Walking Trail"
},
{
"parkId":"11",
"parkName":"Lake Fenwick Park",
"streetAddress":"25828 Lake Fenwick Rd S",
"city":"Kent",
"zipCode":"98032",
"county":"King",
"latitude":"4.73682825",
"longitude":"-1.222721941",
"feature":" Boat Launch, Disabled Access, Disc golf, Dock Access, Fishing, Lake, Walking Trail"
},
{
"parkId":"13",
"parkName":"Lake Tapps Park",
"streetAddress":"198th Ave E",
"city":"Bonney Lake",
"zipCode":"98391",
"county":"Pierce",
"latitude":"4.72420453",
"longitude":"-1.221678951",
"feature":" Access Fee, Beach, Boat Launch, Concessions, Disabled Access, Dock Access, Lake, Picnic Area, Restrooms"
},
{
"parkId":"14",
"parkName":"Titlow Park",
"streetAddress":"8425 6th Avenue",
"city":"Tacoma",
"zipCode":"98456",
"county":"Pierce",
"latitude":"4.72531536",
"longitude":"-1.225495709",
"feature":" Baseball Field, Basketball Court, BBQ/Grill, Beach, Disabled Access, Excersize Path, Lighted Tennis Courts, Multi-Purpose Room Rental, Picnic Area, Playground, Pond, Restrooms, Scuba/Underwater Park, Spray Park, Tennis Court, Toddler Playground, Walking Trail"
},
{
"parkId":"15",
"parkName":"Sam Peach Park",
"streetAddress":"1621 10th Ave NW",
"city":"Puyallup",
"zipCode":"98371",
"county":"Pierce",
"latitude":"4.7199963",
"longitude":"-1.223152970",
"feature":" Baseball Field, Disabled Access, Picnic Area, Playground, Restrooms, Walking Trail"
},
{
"parkId":"16",
"parkName":"Grayland Park",
"streetAddress":"601 N. Meridian",
"city":"Puyallup",
"zipCode":"98371",
"county":"Pierce",
"latitude":"4.71953972",
"longitude":"-1.222926226",
"feature":" Picnic Area, Playground, Restrooms"
},
{
"parkId":"17",
"parkName":"Pioneer Park",
"streetAddress":"Elm Pl & S. Meridian",
"city":"Puyallup",
"zipCode":"98371",
"county":"Pierce",
"latitude":"4.71893184",
"longitude":"-1.222948858",
"feature":" Disabled Access, Multi-Purpose Room Rental, Playground, Restrooms, Spray Park, Stage, Toddler Playground"
},
{
"parkId":"18",
"parkName":"Puyallup Valley Sports Center",
"streetAddress":"820 Valley Ave NW",
"city":"Puyallup",
"zipCode":"98371",
"county":"Pierce",
"latitude":"4.72093331",
"longitude":"-1.223041438",
"feature":" Baseball Field, Basketball Court, Concessions, Disabled Access, Multi-Purpose Room Rental, Playground, Restrooms, Soccer Field, Tennis Court, Walking Trail"
},
{
"parkId":"20",
"parkName":"Clark's Creek",
"streetAddress":"~1901 7th Ave SW",
"city":"Puyallup",
"zipCode":"98371",
"county":"Pierce",
"latitude":"4.71820015",
"longitude":"-1.223197859",
"feature":" Baseball Field, Disabled Access, Excersize Path, Hiking, Off Leash Dog Park, Restrooms, Stream or Creek, Tennis Court, Walking Trail"
},
{
"parkId":"21",
"parkName":"Puyallup Skatepark",
"streetAddress":"1299 4th St NW",
"city":"Puyallup",
"zipCode":"98371",
"county":"Pierce",
"latitude":"4.72021308",
"longitude":"-1.222976782",
"feature":" Biking/Bike Trail, Disabled Access, Playground, Restrooms, River, Skate Park, Walking Trail"
},
{
"parkId":"22",
"parkName":"Dacca Park Athletic Fields",
"streetAddress":"2785 5th Ave E",
"city":"Fife",
"zipCode":"98424",
"county":"Pierce",
"latitude":"4.72310942",
"longitude":"-1.223582427",
"feature":" Baseball Field, Basketball Court, Disabled Access, Museum, Picnic Area, Playground, Pond, Restrooms, Volleyball, Walking Trail"
},
{
"parkId":"23",
"parkName":"Wedge Park",
"streetAddress":"5920 Valley Ave E",
"city":"Fife",
"zipCode":"98424",
"county":"Pierce",
"latitude":"4.7232003",
"longitude":"-1.223500130",
"feature":" Basketball Court, Disabled Access, Picnic Area, Playground, Toddler Playground"
},
{
"parkId":"24",
"parkName":"Colburn Park",
"streetAddress":"5506 20th St E",
"city":"Fife",
"zipCode":"98424",
"county":"Pierce",
"latitude":"4.72383371",
"longitude":"-1.223554069",
"feature":" Access Fee, Picnic Area, Playground, Pool"
},
{
"parkId":"25",
"parkName":"Five Acre Park",
"streetAddress":"6335 Radiance Blvd E",
"city":"Fife",
"zipCode":"98424",
"county":"Pierce",
"latitude":"4.7225810",
"longitude":"-1.223439510",
"feature":" Basketball Court, Picnic Area, Playground, Restrooms, Skate Park, Toddler Playground, Walking Trail"
},
{
"parkId":"26",
"parkName":"Hylebos Nature Area",
"streetAddress":"6125 8th St E",
"city":"Fife",
"zipCode":"98424",
"county":"Pierce",
"latitude":"4.7250104",
"longitude":"-1.223468520",
"feature":" Pond, Stream or Creek, Walking Trail"
},
{
"parkId":"27",
"parkName":"Glacier View Park",
"streetAddress":"Fir Ave N",
"city":"Eatonville",
"zipCode":"98328",
"county":"Pierce",
"latitude":"4.68699979",
"longitude":"-1.222724811",
"feature":" Basketball Court, Disabled Access, Playground, Restrooms"
},
{
"parkId":"28",
"parkName":"Ashford county Park",
"streetAddress":"29801 State Route 706",
"city":"Ashford",
"zipCode":"98304",
"county":"Pierce",
"latitude":"4.67614465",
"longitude":"-1.220397065",
"feature":" Ampitheater, Baseball Field, BBQ/Grill, Disabled Access, Picnic Area, Playground, Pond, Restrooms, Toddler Playground, Walking Trail"
},
{
"parkId":"29",
"parkName":"Fort Steilacoom Park",
"streetAddress":"8714 87th Ave S",
"city":"Lakewood",
"zipCode":"98498",
"county":"Pierce",
"latitude":"4.71705893",
"longitude":"-1.225648762",
"feature":" Baseball Field, BBQ/Grill, Biking/Bike Trail, Covered Picnic Rental, Disabled Access, Disc golf, Fishing, Lake, Monument/Memorial, Multi-Purpose Room Rental, Museum, Off Leash Dog Park, Picnic Area, Playground, Restrooms, Soccer Field, Toddler Playground, Walking Trail"
},
{
"parkId":"30",
"parkName":"Sunset Terrace Park",
"streetAddress":"Seaview Ave W",
"city":"University Place",
"zipCode":"98466",
"county":"Pierce",
"latitude":"4.72419648",
"longitude":"-1.221906568",
"feature":" Baseball Field, BBQ/Grill, Covered Picnic Rental, Picnic Area, Playground, Restrooms, Toddler Playground"
},
{
"parkId":"31",
"parkName":"China Lake Park",
"streetAddress":"1811 S Shirley St",
"city":"Tacoma",
"zipCode":"98465",
"county":"Pierce",
"latitude":"4.72457803",
"longitude":"-1.225092807",
"feature":" Fishing, Lake, Walking Trail"
},
{
"parkId":"32",
"parkName":"Delong Park",
"streetAddress":"4702 S 12th Place",
"city":"Tacoma",
"zipCode":"98405",
"county":"Pierce",
"latitude":"4.72473677",
"longitude":"-1.224989232",
"feature":" Pond, Walking Trail"
},
{
"parkId":"33",
"parkName":"Snake Lake Park/Tacoma Nature Center",
"streetAddress":"1919 S Tyler St",
"city":"Tacoma",
"zipCode":"98405",
"county":"Pierce",
"latitude":"4.72409061",
"longitude":"-1.224936300",
"feature":" Concessions, Lake, Multi-Purpose Room Rental, Museum, Picnic Area, Pond, Restrooms, Toddler Playground, Walking Trail"
},
{
"parkId":"34",
"parkName":"Heidelberg-Davis Park",
"streetAddress":"South 19th St",
"city":"Tacoma",
"zipCode":"98405",
"county":"Pierce",
"latitude":"4.72419434",
"longitude":"-1.224967090",
"feature":" Baseball Field, Disabled Access, Restrooms"
},
{
"parkId":"35",
"parkName":"Franklin Park",
"streetAddress":"S Puget Sound Ave",
"city":"Tacoma",
"zipCode":"98405",
"county":"Pierce",
"latitude":"4.72480979",
"longitude":"-1.224814218",
"feature":" Baseball Field, Basketball Court, Community Garden, Covered Picnic Rental, Disabled Access, Picnic Area, Playground, Restrooms, Spray Park, Toddler Playground, Walking Trail"
},
{
"parkId":"36",
"parkName":"Jefferson Park",
"streetAddress":"North Monroe St",
"city":"Tacoma",
"zipCode":"98406",
"county":"Pierce",
"latitude":"4.72582352",
"longitude":"-1.224909363",
"feature":" Baseball Field, Basketball Court, Community Center, Picnic Area, Playground, Restrooms, Spray Park, Tennis Court, Walking Trail"
},
{
"parkId":"37",
"parkName":"War Memorial Park",
"streetAddress":"7100 6th Ave",
"city":"Tacoma",
"zipCode":"98406",
"county":"Pierce",
"latitude":"4.72572094",
"longitude":"-1.225359984",
"feature":" Monument/Memorial, Picnic Area, Walking Trail"
},
{
"parkId":"38",
"parkName":"Vassault Playfield",
"streetAddress":"6298 N 37th St",
"city":"Tacoma",
"zipCode":"98407",
"county":"Pierce",
"latitude":"4.72809054",
"longitude":"-1.225187874",
"feature":" Baseball Field, Disabled Access, Picnic Area, Playground, Restrooms, Tennis Court, Toddler Playground, Walking Trail"
},
{
"parkId":"39",
"parkName":"Baltimore Park",
"streetAddress":"4716 N Baltimore St",
"city":"Tacoma",
"zipCode":"98407",
"county":"Pierce",
"latitude":"4.72922447",
"longitude":"-1.225093725",
"feature":" Basketball Court, Picnic Area, Playground, Soccer Field, Toddler Playground, Walking Trail"
},
{
"parkId":"40",
"parkName":"Rust Park",
"streetAddress":"5405 N Commercial St",
"city":"Tacoma",
"zipCode":"98407",
"county":"Pierce",
"latitude":"4.72970177",
"longitude":"-1.225115069",
"feature":" Basketball Court, Picnic Area, Playground"
},
{
"parkId":"41",
"parkName":"Point Defiance Park",
"streetAddress":"5400 N Pearl St",
"city":"Tacoma",
"zipCode":"98407",
"county":"Pierce",
"latitude":"4.73078759",
"longitude":"-1.225309605",
"feature":" BBQ/Grill, Beach, Boat Launch, Boat Rentals, Community Garden, Concessions, Covered Picnic Rental, Disabled Access, Fishing, Hiking, Monument/Memorial, Multi-Purpose Room Rental, Museum, Off Leash Dog Park, Picnic Area, Playground, Restrooms, Scuba/Underwater Park, Stage, Tennis Court, Unmotorized Boat Launch, Walking Trail, Zoo"
},
{
"parkId":"42",
"parkName":"Marine Park",
"streetAddress":"Ruston Way",
"city":"Tacoma",
"zipCode":"98407",
"county":"Pierce",
"latitude":"4.72864226",
"longitude":"-1.224907891",
"feature":" Beach, Biking/Bike Trail, Concessions, Disabled Access, Dock Access, Picnic Area, Restrooms, Scuba/Underwater Park, Walking Trail"
},
{
"parkId":"43",
"parkName":"Puget Creek Natural Area",
"streetAddress":"3100 N Proctor St",
"city":"Tacoma",
"zipCode":"98407",
"county":"Pierce",
"latitude":"4.72766082",
"longitude":"-1.224818975",
"feature":" Stream or Creek, Walking Trail"
},
{
"parkId":"44",
"parkName":"Dickman Mill Park",
"streetAddress":"2423 Ruston Way",
"city":"Tacoma",
"zipCode":"98402",
"county":"Pierce",
"latitude":"4.72762193",
"longitude":"-1.224751853",
"feature":" Beach, Biking/Bike Trail, Disabled Access, Monument/Memorial, Picnic Area, Restrooms, Scuba/Underwater Park, Walking Trail"
},
{
"parkId":"45",
"parkName":"Old Town Park",
"streetAddress":"2350 N 30th St",
"city":"Tacoma",
"zipCode":"98403",
"county":"Pierce",
"latitude":"4.72736529",
"longitude":"-1.224748798",
"feature":" Basketball Court, Picnic Area, Playground, Toddler Playground, Walking Trail"
},
{
"parkId":"46",
"parkName":"Gateway Park",
"streetAddress":"North 30th St",
"city":"Tacoma",
"zipCode":"98403",
"county":"Pierce",
"latitude":"4.72749288",
"longitude":"-1.224657046",
"feature":" Monument/Memorial, Picnic Area"
},
{
"parkId":"47",
"parkName":"Tacoma Chinese Garden and Reconciliation Park",
"streetAddress":"1741 N Schuster Parkway",
"city":"Tacoma",
"zipCode":"98402",
"county":"Pierce",
"latitude":"4.72749093",
"longitude":"-1.224609299",
"feature":" Beach, Biking/Bike Trail, Disabled Access, Monument/Memorial, Multi-Purpose Room Rental, Picnic Area, Walking Trail"
},
{
"parkId":"48",
"parkName":"Garfield Park",
"streetAddress":"N Burough Rd",
"city":"Tacoma",
"zipCode":"98403",
"county":"Pierce",
"latitude":"4.72687942",
"longitude":"-1.224575825",
"feature":" Baseball Field, Basketball Court, Picnic Area, Playground, Walking Trail"
},
{
"parkId":"49",
"parkName":"Wright Park",
"streetAddress":"501 S I St",
"city":"Tacoma",
"zipCode":"98405",
"county":"Pierce",
"latitude":"4.72559401",
"longitude":"-1.224500033",
"feature":" Baseball Field, Bocce Courts, Disabled Access, Horse Shoe Pits, Multi-Purpose Room Rental, Picnic Area, Playground, Pond, Restrooms, Spray Park, Toddler Playground, Walking Trail"
},
{
"parkId":"50",
"parkName":"Thea's Park",
"streetAddress":"405 Dock St",
"city":"Tacoma",
"zipCode":"98402",
"county":"Pierce",
"latitude":"4.72610656",
"longitude":"-1.224395577",
"feature":" Beach, Disabled Access, Fishing, Monument/Memorial, Picnic Area, Playground, Walking Trail"
},
{
"parkId":"51",
"parkName":"Neighbors' Park",
"streetAddress":"722 S I St",
"city":"Tacoma",
"zipCode":"98405",
"county":"Pierce",
"latitude":"4.72554285",
"longitude":"-1.224487604",
"feature":" Basketball Court, Community Garden, Playground"
},
{
"parkId":"54",
"parkName":"Frost Park",
"streetAddress":"S 9th St",
"city":"Tacoma",
"zipCode":"98402",
"county":"Pierce",
"latitude":"4.72551594",
"longitude":"-1.224394471",
"feature":" Pond, Walking Trail"
},
{
"parkId":"55",
"parkName":"Peck Athletic Field",
"streetAddress":"1425 S State St",
"city":"Tacoma",
"zipCode":"98405",
"county":"Pierce",
"latitude":"4.72468925",
"longitude":"-1.224655159",
"feature":" Baseball Field, Concessions, Disabled Access"
},
{
"parkId":"56",
"parkName":"Ferry Park",
"streetAddress":"1410 14th St",
"city":"Tacoma",
"zipCode":"98405",
"county":"Pierce",
"latitude":"4.72483271",
"longitude":"-1.224551495",
"feature":" Picnic Area, Playground, Walking Trail"
},
{
"parkId":"57",
"parkName":"Don Pugnetti Park",
"streetAddress":"2085 Pacific Ave",
"city":"Tacoma",
"zipCode":"98402",
"county":"Pierce",
"latitude":"4.7243387",
"longitude":"-1.224355513",
"feature":" Walking Trail"
},
{
"parkId":"58",
"parkName":"Lincoln Park",
"streetAddress":"747 Market St",
"city":"Tacoma",
"zipCode":"98402",
"county":"Pierce",
"latitude":"4.72269677",
"longitude":"-1.224436720",
"feature":" Basketball Court, Picnic Area, Playground, Restrooms, Toddler Playground, Walking Trail"
},
{
"parkId":"59",
"parkName":"Verlo Playfield",
"streetAddress":"907 Upper Park St",
"city":"Tacoma",
"zipCode":"98404",
"county":"Pierce",
"latitude":"4.72173822",
"longitude":"-1.224195714",
"feature":" Basketball Court, Disabled Access, Picnic Area, Playground, Restrooms, Spray Park, Tennis Court, Toddler Playground, Walking Trail"
},
{
"parkId":"60",
"parkName":"Portland Avenue Park",
"streetAddress":"3513 Portland Ave",
"city":"Tacoma",
"zipCode":"98404",
"county":"Pierce",
"latitude":"4.72319195",
"longitude":"-1.224057142",
"feature":" Basketball Court, Community Center, Disabled Access, Football Field, Playground, Restrooms, Soccer Field, Tennis Court, Wading Pool, Walking Trail"
},
{
"parkId":"61",
"parkName":"South Park",
"streetAddress":"S Puget Sound Ave",
"city":"Tacoma",
"zipCode":"98409",
"county":"Pierce",
"latitude":"4.72104732",
"longitude":"-1.224800813",
"feature":" Baseball Field, Basketball Court, Disabled Access, Playground, Spray Park, Toddler Playground, Walking Trail"
},
{
"parkId":"62",
"parkName":"Wapato Park",
"streetAddress":"6500 S Sheridan Ave",
"city":"Tacoma",
"zipCode":"98408",
"county":"Pierce",
"latitude":"4.71962011",
"longitude":"-1.224553889",
"feature":" BBQ/Grill, Biking/Bike Trail, Covered Picnic Rental, Disabled Access, Dock Access, Juvenile Fishing, Lake, Monument/Memorial, Multi-Purpose Room Rental, Off Leash Dog Park, Picnic Area, Playground, Restrooms, Toddler Playground, Unmotorized Boat Launch, Walking Trail"
},
{
"parkId":"63",
"parkName":"Seeley Lake Park",
"streetAddress":"9112 Lakewood Dr SW",
"city":"Tacoma",
"zipCode":"98499",
"county":"Pierce",
"latitude":"4.71725491",
"longitude":"-1.225081472",
"feature":" Community Center, Disc golf, Picnic Area, Playground, Walking Trail"
},
{
"parkId":"64",
"parkName":"Wards Lake Park",
"streetAddress":"84th St Ct S",
"city":"Tacoma",
"zipCode":"98499",
"county":"Pierce",
"latitude":"4.71800726",
"longitude":"-1.224725427",
"feature":" Covered Picnic Rental, Disabled Access, Lake, Playground, Restrooms, Toddler Playground, Walking Trail"
},
{
"parkId":"65",
"parkName":"Skate Park",
"streetAddress":"Fairlawn Rd SW",
"city":"Tacoma",
"zipCode":"98499",
"county":"Pierce",
"latitude":"4.71753283",
"longitude":"-1.225170290",
"feature":" Disabled Access, Picnic Area, Playground, Restrooms, Skate Park, Toddler Playground, Walking Trail"
},
{
"parkId":"66",
"parkName":"Kobayashi Park",
"streetAddress":"Kobayashi Park Dr",
"city":"University Place",
"zipCode":"98467",
"county":"Pierce",
"latitude":"4.71984391",
"longitude":"-1.225269932",
"feature":" Covered Picnic Rental, Picnic Area, Stream or Creek, Walking Trail"
},
{
"parkId":"67",
"parkName":"Lakewood Active Park",
"streetAddress":"10506 Russell Rd SW",
"city":"Lakewood",
"zipCode":"98499",
"county":"Pierce",
"latitude":"4.71461544",
"longitude":"-1.225369351",
"feature":" Baseball Field, Basketball Court, Covered Picnic Rental, Picnic Area, Playground"
},
{
"parkId":"69",
"parkName":"American Lake North Park",
"streetAddress":"Vernon St and Veteran's Dr SW",
"city":"Lakewood",
"zipCode":"98498",
"county":"Pierce",
"latitude":"4.71417587",
"longitude":"-1.225585342",
"feature":" Access Fee, Beach, Boat Launch, Covered Picnic Rental, Disabled Access, Dock Access, Lake, Picnic Area, Playground, Restrooms"
},
{
"parkId":"70",
"parkName":"Harry Todd Park",
"streetAddress":"N Throne Lane SW",
"city":"Lakewood",
"zipCode":"98498",
"county":"Pierce",
"latitude":"4.71283926",
"longitude":"-1.225542268",
"feature":" Baseball Field, Basketball Court, Beach, Covered Picnic Rental, Fishing, Lake, Picnic Area, Playground, Restrooms, Skate Park, Tennis Court, Walking Trail"
},
{
"parkId":"71",
"parkName":"Forest Park",
"streetAddress":"11603 Farwest Dr SW",
"city":"Lakewood",
"zipCode":"98498",
"county":"Pierce",
"latitude":"4.7149980",
"longitude":"-1.225726818",
"feature":" Baseball Field, Basketball Court, Picnic Area, Playground, Walking Trail"
},
{
"parkId":"72",
"parkName":"Summer Cove",
"streetAddress":"San Antonio Place",
"city":"Fort Lewis",
"zipCode":"98433",
"county":"Pierce",
"latitude":"4.71260018",
"longitude":"-1.225792035",
"feature":" Beach, Lake, Picnic Area, Playground, Restrooms, Toddler Playground"
},
{
"parkId":"73",
"parkName":"Shoreline Park",
"streetAddress":"Shoreline Beach Rd",
"city":"Fort Lewis",
"zipCode":"98433",
"county":"Pierce",
"latitude":"4.71158996",
"longitude":"-1.225830758",
"feature":" Basketball Court, Beach, Boat Launch, Covered Picnic Rental, Dock Access, Fishing, Lake, Multi-Purpose Room Rental, Picnic Area, Playground, Restrooms"
},
{
"parkId":"74",
"parkName":"Pioneer Orchard Park",
"streetAddress":"1700 Commercial St",
"city":"Steilacoom",
"zipCode":"98388",
"county":"Pierce",
"latitude":"4.71737945",
"longitude":"-1.225988030",
"feature":" Monument/Memorial, Picnic Area, Stage, Walking Trail"
},
{
"parkId":"75",
"parkName":"Sunnyside Beach Park",
"streetAddress":"Chambers Creek Rd W",
"city":"Steilacoom",
"zipCode":"98388",
"county":"Pierce",
"latitude":"4.71803633",
"longitude":"-1.225889269",
"feature":" Access Fee, BBQ/Grill, Beach, Covered Picnic Rental, Disabled Access, Picnic Area, Playground, Restrooms, Scuba/Underwater Park, Volleyball, Walking Trail"
},
{
"parkId":"76",
"parkName":"Chamber's Creek Properties Dog Park",
"streetAddress":"Chamber's Creek Properties",
"city":"University Place",
"zipCode":"98467",
"county":"Pierce",
"latitude":"4.7197994",
"longitude":"-1.225768590",
"feature":" Beach, Off Leash Dog Park"
},
{
"parkId":"77",
"parkName":"Bresemann Forest",
"streetAddress":"8th Ave Ct S",
"city":"Parkland",
"zipCode":"98444",
"county":"Pierce",
"latitude":"4.71248569",
"longitude":"-1.224600799",
"feature":" Hiking, Pond, Stream or Creek, Walking Trail"
},
{
"parkId":"78",
"parkName":"Sprinker Recreation Center",
"streetAddress":"14824 C St S",
"city":"Tacoma",
"zipCode":"98444",
"county":"Pierce",
"latitude":"4.71226312",
"longitude":"-1.224405726",
"feature":" Baseball Field, Basketball Court, Concessions, Ice Skating, Multi-Purpose Room Rental, Picnic Area, Playground, Racquetball, Restrooms, Rock Climbing, Skate Park, Tennis Court, Toddler Playground, Walking Trail"
},
{
"parkId":"79",
"parkName":"Mayfair county Park",
"streetAddress":"13th Ave Ct E",
"city":"Parkland",
"zipCode":"98445",
"county":"Pierce",
"latitude":"4.71324841",
"longitude":"-1.224112039",
"feature":" Baseball Field, Stream or Creek"
},
{
"parkId":"80",
"parkName":"Fernhill Park",
"streetAddress":"502 S 88th St",
"city":"Tacoma",
"zipCode":"98444",
"county":"Pierce",
"latitude":"4.71773518",
"longitude":"-1.224404146",
"feature":" Picnic Area, Playground, Walking Trail"
},
{
"parkId":"81",
"parkName":"Stewart Heights Park",
"streetAddress":"402 E 56th St",
"city":"Tacoma",
"zipCode":"98404",
"county":"Pierce",
"latitude":"4.72048171",
"longitude":"-1.224266203",
"feature":" Baseball Field, Basketball Court, Concessions, Disabled Access, Multi-Purpose Room Rental, Picnic Area, Playground, Pool, Restrooms, Skate Park, Soccer Field, Tennis Court, Toddler Playground, Walking Trail"
},
{
"parkId":"82",
"parkName":"Gas Station Park",
"streetAddress":"4802 S Park Ave",
"city":"Tacoma",
"zipCode":"98408",
"county":"Pierce",
"latitude":"4.72134035",
"longitude":"-1.224421678",
"feature":" Basketball Court, Disabled Access, Picnic Area, Playground"
},
{
"parkId":"83",
"parkName":"Dawson Playfield",
"streetAddress":"9000 Portland Ave E",
"city":"Tacoma",
"zipCode":"98445",
"county":"Pierce",
"latitude":"4.71765212",
"longitude":"-1.224063316",
"feature":" Baseball Field, Basketball Court, BBQ/Grill, Covered Picnic Rental, Disabled Access, Picnic Area, Playground, Restrooms, Tennis Court, Toddler Playground, Walking Trail"
},
{
"parkId":"84",
"parkName":"Cloverdale Park",
"streetAddress":"1635 E 59th St",
"city":"Tacoma",
"zipCode":"98404",
"county":"Pierce",
"latitude":"4.72040939",
"longitude":"-1.224085157",
"feature":" Basketball Court, Disabled Access, Picnic Area, Playground, Tennis Court, Walking Trail"
},
{
"parkId":"85",
"parkName":"Swan Creek county Park",
"streetAddress":"2820 Pioneer Way",
"city":"Tacoma",
"zipCode":"98404",
"county":"Pierce",
"latitude":"4.72277486",
"longitude":"-1.223916051",
"feature":" Biking/Bike Trail, Community Garden, Hiking, Picnic Area, Pond, Stream or Creek, Walking Trail"
},
{
"parkId":"86",
"parkName":"South Hill Park",
"streetAddress":"144th St E",
"city":"South Hill",
"zipCode":"98373",
"county":"Pierce",
"latitude":"4.71261922",
"longitude":"-1.223149975",
"feature":" Biking/Bike Trail, Disabled Access, Picnic Area, Playground, Pond, Restrooms, Soccer Field, Stream or Creek, Toddler Playground, Walking Trail"
},
{
"parkId":"87",
"parkName":"Orting Dog Park/Callistoga Park",
"streetAddress":"Levee Rd SW",
"city":"Orting",
"zipCode":"98360",
"county":"Pierce",
"latitude":"4.70900734",
"longitude":"-1.222120670",
"feature":" Baseball Field, Fishing, Off Leash Dog Park, Playground, River"
},
{
"parkId":"88",
"parkName":"Whitehawk Park/Gratzer Sports Park",
"streetAddress":"Orting Ave NW",
"city":"Orting",
"zipCode":"98360",
"county":"Pierce",
"latitude":"4.70973249",
"longitude":"-1.223229222",
"feature":" Baseball Field, Disabled Access, Picnic Area, Playground, Soccer Field"
},
{
"parkId":"89",
"parkName":"Orting Park - North, Central and South",
"streetAddress":"Van Scoyoc Ave SW",
"city":"Orting",
"zipCode":"98360",
"county":"Pierce",
"latitude":"4.70942258",
"longitude":"-1.222052302",
"feature":" Basketball Court, BBQ/Grill, Biking/Bike Trail, Covered Picnic Rental, Disabled Access, Horse Shoe Pits, Monument/Memorial, Multi-Purpose Room Rental, Picnic Area, Playground, Restrooms, Stage, Toddler Playground, Walking Trail"
},
{
"parkId":"90",
"parkName":"Orting Skate Park",
"streetAddress":"Olive St SE",
"city":"Orting",
"zipCode":"98360",
"county":"Pierce",
"latitude":"4.70942258",
"longitude":"-1.221988864",
"feature":" Biking/Bike Trail, Disabled Access, Playground, Skate Park, Walking Trail"
},
{
"parkId":"92",
"parkName":"VanderHoof Park",
"streetAddress":"SR 410",
"city":"Buckley",
"zipCode":"98321",
"county":"Pierce",
"latitude":"4.7165147",
"longitude":"-1.220276793",
"feature":" Basketball Court, Biking/Bike Trail, Community Center, Monument/Memorial, Multi-Purpose Room Rental, Museum, Picnic Area, Playground, Restrooms, Skate Park, Toddler Playground, Walking Trail"
},
{
"parkId":"94",
"parkName":"A Street Park",
"streetAddress":"875 Jefferson St",
"city":"Buckley",
"zipCode":"98321",
"county":"Pierce",
"latitude":"4.71597229",
"longitude":"-1.220271627",
"feature":" Playground, Toddler Playground"
},
{
"parkId":"95",
"parkName":"Elk Heights Park",
"streetAddress":"Davis St",
"city":"Buckley",
"zipCode":"98321",
"county":"Pierce",
"latitude":"4.7155756",
"longitude":"-1.220128184",
"feature":" Picnic Area, Playground, Walking Trail"
},
{
"parkId":"96",
"parkName":"Mountain View Ave Park",
"streetAddress":"600 Mountain View Ave",
"city":"Orting",
"zipCode":"98321",
"county":"Pierce",
"latitude":"4.71553909",
"longitude":"-1.220294166",
"feature":" Picnic Area, Playground"
},
{
"parkId":"97",
"parkName":"Third Street Park",
"streetAddress":"206 3rd St SW",
"city":"South Prairie",
"zipCode":"98321",
"county":"Pierce",
"latitude":"4.71367489",
"longitude":"-1.220994578",
"feature":" Baseball Field, Basketball Court, Picnic Area, Playground, Restrooms, Walking Trail"
},
{
"parkId":"98",
"parkName":"Cedarview Park",
"streetAddress":"9301 208th Ave E",
"city":"Bonney Lake",
"zipCode":"98391",
"county":"Pierce",
"latitude":"4.71729079",
"longitude":"-1.221547399",
"feature":" Basketball Court, Covered Picnic Rental, Disabled Access, Picnic Area, Playground, Toddler Playground"
},
{
"parkId":"99",
"parkName":"Ken Simmons Park",
"streetAddress":"18200 74th St E",
"city":"Bonney Lake",
"zipCode":"98391",
"county":"Pierce",
"latitude":"4.71900042",
"longitude":"-1.221884520",
"feature":" Fishing, Lake, Picnic Area, Playground, Unmotorized Boat Launch, Walking Trail"
},
{
"parkId":"100",
"parkName":"Madrona Park",
"streetAddress":"7730 182nd Ave E",
"city":"Bonney Lake",
"zipCode":"98391",
"county":"Pierce",
"latitude":"4.71847756",
"longitude":"-1.221888177",
"feature":" Basketball Court, Picnic Area, Playground"
},
{
"parkId":"101",
"parkName":"Victor Falls Park",
"streetAddress":"18212 Rhodes Lake Rd E",
"city":"Bonney Lake",
"zipCode":"98391",
"county":"Pierce",
"latitude":"4.71500199",
"longitude":"-1.221871221",
"feature":" Hiking, Waterfall"
},
{
"parkId":"102",
"parkName":"Viking Park",
"streetAddress":"18902 82nd St E",
"city":"Bonney Lake",
"zipCode":"98391",
"county":"Pierce",
"latitude":"4.71831751",
"longitude":"-1.221775823",
"feature":" Baseball Field, Off Leash Dog Park, Playground, Soccer Field"
},
{
"parkId":"103",
"parkName":"Sprout Holler",
"streetAddress":"Village Parkway E",
"city":"Bonney Lake",
"zipCode":"98391",
"county":"Pierce",
"latitude":"4.71329409",
"longitude":"-1.221769880",
"feature":" Baseball Field, Basketball Court, Disabled Access, Picnic Area, Playground, Soccer Field, Toddler Playground, Walking Trail"
},
{
"parkId":"105",
"parkName":"Manorwood Park",
"streetAddress":"2310 Manorwood Dr",
"city":"Puyallup",
"zipCode":"98374",
"county":"Pierce",
"latitude":"4.71581698",
"longitude":"-1.222636744",
"feature":" Playground"
},
{
"parkId":"106",
"parkName":"Riverside county Park",
"streetAddress":"78th St E",
"city":"Sumner",
"zipCode":"98390",
"county":"Pierce",
"latitude":"4.71855481",
"longitude":"-1.222159751",
"feature":" Biking/Bike Trail, Disc golf, Playground, River, Walking Trail"
},
{
"parkId":"107",
"parkName":"Loyalty Park",
"streetAddress":"1300 Park St",
"city":"Sumner",
"zipCode":"98390",
"county":"Pierce",
"latitude":"4.7199651",
"longitude":"-1.222373640",
"feature":" Basketball Court, Disabled Access, Horse Shoe Pits, Picnic Area, Playground, Restrooms, Toddler Playground, Walking Trail"
},
{
"parkId":"108",
"parkName":"Daffodil Valley Sports Complex",
"streetAddress":"15225 Washington St E",
"city":"Sumner",
"zipCode":"98390",
"county":"Pierce",
"latitude":"4.72065158",
"longitude":"-1.222257250",
"feature":" Baseball Field, Basketball Court, Community Center, Disabled Access, Picnic Area, Restrooms, Skate Park, Tennis Court, Volleyball"
},
{
"parkId":"109",
"parkName":"Reuben A. Knoblauch Heritage Park",
"streetAddress":"914 Kincaid Ave",
"city":"Sumner",
"zipCode":"98391",
"county":"Pierce",
"latitude":"4.72027928",
"longitude":"-1.222416580",
"feature":" Disabled Access, Stage"
},
{
"parkId":"110",
"parkName":"Rainier View Park",
"streetAddress":"15603 Meade McCumber Rd",
"city":"Sumner",
"zipCode":"98390",
"county":"Pierce",
"latitude":"4.71976964",
"longitude":"-1.222233369",
"feature":" Basketball Court, BBQ/Grill, Covered Picnic Rental, Disabled Access, Museum, Picnic Area, Playground, Restrooms, Toddler Playground, Walking Trail"
},
{
"parkId":"111",
"parkName":"Seibenthaller Park",
"streetAddress":"1602 Bonney Ave",
"city":"Sumner",
"zipCode":"98390",
"county":"Pierce",
"latitude":"4.72092589",
"longitude":"-1.222363075",
"feature":" Basketball Court, Disabled Access, Picnic Area, Playground"
},
{
"parkId":"113",
"parkName":"Tacoma Narrows Park",
"streetAddress":"1502 Lucille Parkway NW",
"city":"Gig Harbor",
"zipCode":"98335",
"county":"Pierce",
"latitude":"4.72672371",
"longitude":"-1.225658436",
"feature":" Beach, Disabled Access, Fishing, Hiking, Picnic Area, Unmotorized Boat Launch, Walking Trail"
},
{
"parkId":"114",
"parkName":"Skansie Brothers Park",
"streetAddress":"3211 Harborview Dr",
"city":"Gig Harbor",
"zipCode":"98335",
"county":"Pierce",
"latitude":"4.73305781",
"longitude":"-1.225819951",
"feature":" Monument/Memorial, Museum, Restrooms"
},
{
"parkId":"115",
"parkName":"Civic Center Green",
"streetAddress":"3510 Grandview St",
"city":"Gig Harbor",
"zipCode":"98335",
"county":"Pierce",
"latitude":"4.7322054",
"longitude":"-1.225866452",
"feature":" Disabled Access, Picnic Area, Skate Park, Toddler Playground, Walking Trail"
},
{
"parkId":"116",
"parkName":"Adam Tallman Park",
"streetAddress":"6626 Wagner Way NW",
"city":"Gig Harbor",
"zipCode":"98335",
"county":"Pierce",
"latitude":"4.7319031",
"longitude":"-1.225967125",
"feature":" Dock Access, Lake, Walking Trail"
},
{
"parkId":"118",
"parkName":"Fox Island Sand Spit",
"streetAddress":"Bella Bella Drive FI",
"city":"Fox Island",
"zipCode":"98333",
"county":"Pierce",
"latitude":"4.72770061",
"longitude":"-1.226646525",
"feature":" Beach, Fishing, Unmotorized Boat Launch"
},
{
"parkId":"119",
"parkName":"Fox Island Fishing Pier",
"streetAddress":"1453 Ozette Dr FI",
"city":"Fox Island",
"zipCode":"98333",
"county":"Pierce",
"latitude":"4.72285321",
"longitude":"-1.225911128",
"feature":" Beach, Boat Launch, Disabled Access, Dock Access, Fishing, Restrooms, Unmotorized Boat Launch"
},
{
"parkId":"120",
"parkName":"Hales Pass Park",
"streetAddress":"3607 Ray Nash Dr NW",
"city":"Gig Harbor",
"zipCode":"98335",
"county":"Pierce",
"latitude":"4.7289968",
"longitude":"-1.226668726",
"feature":" Baseball Field, Monument/Memorial, Museum, Tennis Court"
},
{
"parkId":"121",
"parkName":"Kopachuk State Park",
"streetAddress":"10712 56th St NW",
"city":"Gig Harbor",
"zipCode":"98335",
"county":"Pierce",
"latitude":"4.73087474",
"longitude":"-1.226781362",
"feature":" Access Fee, Beach, Disabled Access, Fishing, Hiking, Picnic Area, Playground, Restrooms, Scuba/Underwater Park, Unmotorized Boat Launch"
},
{
"parkId":"122",
"parkName":"Cutts Island State Park",
"streetAddress":"Cutts Island",
"city":"Gig Harbor",
"zipCode":"98335",
"county":"Pierce",
"latitude":"4.7320923",
"longitude":"-1.226871590",
"feature":" Beach, Fishing, Hiking, Rock Climbing"
},
{
"parkId":"123",
"parkName":"Kenneth Leo Marvin Veterans Memorial Park",
"streetAddress":"3580 50th St Ct NW",
"city":"Gig Harbor",
"zipCode":"98335",
"county":"Pierce",
"latitude":"4.73030299",
"longitude":"-1.225860585",
"feature":" Baseball Field, Disabled Access, Picnic Area, Playground, Restrooms, Soccer Field, Walking Trail"
},
{
"parkId":"124",
"parkName":"city Park at Crescent Creek",
"streetAddress":"3303 Vernhardson St",
"city":"Gig Harbor",
"zipCode":"98332",
"county":"Pierce",
"latitude":"4.73454129",
"longitude":"-1.225797483",
"feature":" Baseball Field, Basketball Court, Biking/Bike Trail, Disabled Access, Picnic Area, Playground, Restrooms, Stream or Creek, Tennis Court, Volleyball, Walking Trail"
},
{
"parkId":"125",
"parkName":"Eddon Boat Park",
"streetAddress":"3805 Harborview Dr",
"city":"Gig Harbor",
"zipCode":"98335",
"county":"Pierce",
"latitude":"4.73337809",
"longitude":"-1.225889258",
"feature":" Beach, Boat Launch, Disabled Access, Dock Access, Fishing, Monument/Memorial, Picnic Area, Restrooms, Unmotorized Boat Launch, Walking Trail"
},
{
"parkId":"126",
"parkName":"Donkey Creek Park",
"streetAddress":"8714 Harborview Dr",
"city":"Gig Harbor",
"zipCode":"98332",
"county":"Pierce",
"latitude":"4.73377195",
"longitude":"-1.225946682",
"feature":" Picnic Area, Restrooms, Stream or Creek, Walking Trail"
},
{
"parkId":"127",
"parkName":"Rosedale Park",
"streetAddress":"86th Ave NW",
"city":"Gig Harbor",
"zipCode":"98335",
"county":"Pierce",
"latitude":"4.73308522",
"longitude":"-1.226541196",
"feature":" Baseball Field, Restrooms"
},
{
"parkId":"128",
"parkName":"Sunrise Beach Park",
"streetAddress":"10015 Sunrise Beach Dr NW",
"city":"Gig Harbor",
"zipCode":"98332",
"county":"Pierce",
"latitude":"4.73498877",
"longitude":"-1.225570929",
"feature":" Beach, Fishing, Hiking, Scuba/Underwater Park, Unmotorized Boat Launch, Walking Trail"
},
{
"parkId":"129",
"parkName":"Sehmel Homestead Park",
"streetAddress":"10123 78th Ave NW",
"city":"Gig Harbor",
"zipCode":"98332",
"county":"Pierce",
"latitude":"4.73512234",
"longitude":"-1.226303802",
"feature":" Ampitheater, Baseball Field, Basketball Court, Community Garden, Concessions, Covered Picnic Rental, Disabled Access, Football Field, Hiking, Multi-Purpose Room Rental, Picnic Area, Playground, Pond, Restrooms, Soccer Field, Stage, Stream or Creek, Tennis Court, Walking Trail"
},
{
"parkId":"130",
"parkName":"McCormick Forest Park",
"streetAddress":"10301 Bujacich Rd NW",
"city":"Gig Harbor",
"zipCode":"98332",
"county":"Pierce",
"latitude":"4.73523177",
"longitude":"-1.226186672",
"feature":" Biking/Bike Trail, Hiking, Walking Trail"
},
{
"parkId":"131",
"parkName":"Rotary Bark Park",
"streetAddress":"10100 Bujacich Rd NW",
"city":"Gig Harbor",
"zipCode":"98332",
"county":"Pierce",
"latitude":"4.7350872",
"longitude":"-1.226215640",
"feature":" Off Leash Dog Park, Picnic Area"
},
{
"parkId":"133",
"parkName":"Crescent Lake county Park",
"streetAddress":"3510 Grandview St",
"city":"Gig Harbor",
"zipCode":"98335",
"county":"Pierce",
"latitude":"4.739468844",
"longitude":"-1.225675070",
"feature":" Boat Launch, Disabled Access, Fishing, Lake, Restrooms"
},
{
"parkId":"134",
"parkName":"Maplewood Park",
"streetAddress":"14600 14th Ave NW",
"city":"Gig Harbor",
"zipCode":"98332",
"county":"Pierce",
"latitude":"4.73903724",
"longitude":"-1.225562399",
"feature":" Beach, Hiking"
},
{
"parkId":"135",
"parkName":"Purdy Sand Spit",
"streetAddress":"Washington SR 302",
"city":"Gig Harbor",
"zipCode":"98329",
"county":"Pierce",
"latitude":"4.73808995",
"longitude":"-1.226391228",
"feature":" Beach, Dock Access, Fishing, Walking Trail"
},
{
"parkId":"136",
"parkName":"Penrose Point State Park",
"streetAddress":"321 158th Ave KP South",
"city":"Lakebay",
"zipCode":"98349",
"county":"Pierce",
"latitude":"4.72576685",
"longitude":"-1.227433775",
"feature":" Access Fee, Biking/Bike Trail, Disabled Access, Dock Access, Fishing, Horse Shoe Pits, Picnic Area, Restrooms, Scuba/Underwater Park"
},
{
"parkId":"137",
"parkName":"Joemma Beach State Park",
"streetAddress":"20001 Bay Road KP South",
"city":"Longbranch",
"zipCode":"98351",
"county":"Pierce",
"latitude":"4.72254708",
"longitude":"-1.228091532",
"feature":" Access Fee, Beach, Boat Launch, Disabled Access, Dock Access, Fishing, Restrooms, Walking Trail"
},
{
"parkId":"138",
"parkName":"Key Peninsula Metro Parks",
"streetAddress":"5514 Key Peninsula Highway",
"city":"Lakebay",
"zipCode":"98349",
"county":"Pierce",
"latitude":"4.73082779",
"longitude":"-1.227556183",
"feature":" Baseball Field, Disabled Access, Disc golf, Hiking, Picnic Area, Playground, Walking Trail"
},
{
"parkId":"139",
"parkName":"Springbrook Park",
"streetAddress":"12601th St SW",
"city":"Lakewood",
"zipCode":"98499",
"county":"Pierce",
"latitude":"4.71429056",
"longitude":"-1.225013869",
"feature":" Baseball Field, Basketball Court, Picnic Area, Playground, Soccer Field, Toddler Playground, Walking Trail"
},
{
"parkId":"140",
"parkName":"Edgewater Park",
"streetAddress":"9102 Edgewater Dr SW",
"city":"Lakewood",
"zipCode":"98499",
"county":"Pierce",
"latitude":"4.71741372",
"longitude":"-1.225354221",
"feature":" Fishing, Unmotorized Boat Launch"
},
{
"parkId":"141",
"parkName":"Christopher Columbus Bocce Courts",
"streetAddress":"Forrest Park Dr",
"city":"Fircrest",
"zipCode":"98466",
"county":"Pierce",
"latitude":"4.72299532",
"longitude":"-1.225113925",
"feature":" Baseball Field, Bocce Courts, Disabled Access, Soccer Field, Tennis Court"
},
{
"parkId":"142",
"parkName":"George Masko Park",
"streetAddress":"134 Ramsdell St",
"city":"Fircrest",
"zipCode":"98466",
"county":"Pierce",
"latitude":"4.7232393",
"longitude":"-1.225070440",
"feature":" Monument/Memorial, Picnic Area, Walking Trail"
},
{
"parkId":"143",
"parkName":"Homestead Park",
"streetAddress":"3715 Bridgeport Way W",
"city":"University Place",
"zipCode":"98466",
"county":"Pierce",
"latitude":"4.72231439",
"longitude":"-1.225382532",
"feature":" Monument/Memorial, Picnic Area, Walking Trail"
},
{
"parkId":"144",
"parkName":"Fircrest Park",
"streetAddress":"555 Contra Costa Ave",
"city":"Fircrest",
"zipCode":"98466",
"county":"Pierce",
"latitude":"4.7234370",
"longitude":"-1.225113780",
"feature":" Baseball Field, Basketball Court, Community Center, Disabled Access, Picnic Area, Playground, Pool, Restrooms, Soccer Field, Street Hockey, Tennis Court"
},
{
"parkId":"145",
"parkName":"Cirque Bridgeport Park",
"streetAddress":"7250 Cirque Dr W",
"city":"University Place",
"zipCode":"98466",
"county":"Pierce",
"latitude":"4.72119938",
"longitude":"-1.225342154",
"feature":" Baseball Field, Disabled Access, Picnic Area, Playground, Restrooms, Skate Park, Soccer Field, Volleyball, Walking Trail"
},
{
"parkId":"146",
"parkName":"Millpond Park",
"streetAddress":"Alder St E",
"city":"Eatonville",
"zipCode":"98328",
"county":"Pierce",
"latitude":"4.7862357",
"longitude":"-1.222648560",
"feature":" Disabled Access, Museum, Picnic Area, Playground, Pond, Restrooms, River, Skate Park, Toddler Playground, Walking Trail"
},
{
"parkId":"147",
"parkName":"Pacific city Park",
"streetAddress":"600 3rd Ave SE",
"city":"Pacific",
"zipCode":"98047",
"county":"King",
"latitude":"4.7264111",
"longitude":"-1.222368896",
"feature":" Baseball Field, Basketball Court, Disabled Access, Picnic Area, Playground, Restrooms, River, Soccer Field, Stage, Walking Trail"
},
{
"parkId":"148",
"parkName":"Frontier Park",
"streetAddress":"21718 Meridian Ave E",
"city":"Graham",
"zipCode":"98338",
"county":"Pierce",
"latitude":"4.70591971",
"longitude":"-1.222969316",
"feature":" Concessions, Disabled Access, Multi-Purpose Room Rental, Playground, Restrooms, Walking Trail"
},
{
"parkId":"149",
"parkName":"Sunrise Visitor Center",
"streetAddress":"Sunrise Park Rd",
"city":"Ashford",
"zipCode":"98304",
"county":"Pierce",
"latitude":"4.79140844",
"longitude":"-1.226441602",
"feature":" Access Fee, Disabled Access, Fishing, Hiking, Lake, Museum, Picnic Area, Restrooms, River, Walking Trail"
},
{
"parkId":"150",
"parkName":"Henry M Jackson Visitor Center",
"streetAddress":"39000 WA-706",
"city":"Ashford",
"zipCode":"98304",
"county":"Pierce",
"latitude":"4.77864549",
"longitude":"-1.227382209",
"feature":" Access Fee, Concessions, Disabled Access, Hiking, Museum, Picnic Area, Restrooms, River, Walking Trail, Waterfall"
},
{
"parkId":"151",
"parkName":"Alderwood Park",
"streetAddress":"208 Browns Point Blvd",
"city":"Tacoma",
"zipCode":"98422",
"county":"Pierce",
"latitude":"4.72869923",
"longitude":"-1.223889551",
"feature":" Picnic Area, Playground, Walking Trail"
},
{
"parkId":"152",
"parkName":"Alling Park",
"streetAddress":"1134 S. 60th St.",
"city":"Tacoma",
"zipCode":"98408",
"county":"Pierce",
"latitude":"4.72028644",
"longitude":"-1.224524257",
"feature":" Picnic Area, Playground, Tennis Court, Walking Trail"
},
{
"parkId":"153",
"parkName":"Browns Point Athletic Complex",
"streetAddress":"1526 51st St NE",
"city":"Tacoma",
"zipCode":"98422",
"county":"Pierce",
"latitude":"4.7301781",
"longitude":"-1.224237600",
"feature":" Baseball Field, Disabled Access, Playground, Soccer Field, Tennis Court, Walking Trail"
},
{
"parkId":"154",
"parkName":"Brown's Point Lighthouse Park",
"streetAddress":"201 Tulalip St NE",
"city":"Tacoma",
"zipCode":"98422",
"county":"Pierce",
"latitude":"4.73053722",
"longitude":"-1.224438329",
"feature":" Beach, Boat Launch, Fishing, Monument/Memorial, Museum, Walking Trail"
},
{
"parkId":"155",
"parkName":"Browns Point Playfield",
"streetAddress":"4915 La Hal Da Lane NE",
"city":"Tacoma",
"zipCode":"98422",
"county":"Pierce",
"latitude":"4.73018319",
"longitude":"-1.224401733",
"feature":" Baseball Field, Disabled Access, Picnic Area, Playground, Soccer Field, Tennis Court"
},
{
"parkId":"156",
"parkName":"Cumming's Park",
"streetAddress":"3939 Ruston Way",
"city":"Tacoma",
"zipCode":"98402",
"county":"Pierce",
"latitude":"4.7287103",
"longitude":"-1.224889310",
"feature":" Beach, Biking/Bike Trail, Disabled Access, Dock Access, Fishing, Monument/Memorial, Picnic Area, Walking Trail"
},
{
"parkId":"157",
"parkName":"Dash Point Park",
"streetAddress":"1500 Beach Dr NE",
"city":"Tacoma",
"zipCode":"98422",
"county":"Pierce ",
"latitude":"4.73191803",
"longitude":"-1.224268471",
"feature":" Beach, Disabled Access, Dock Access, Fishing, Picnic Area, Restrooms, Scuba/Underwater Park, Unmotorized Boat Launch, Walking Trail"
},
{
"parkId":"158",
"parkName":"Hamilton Park",
"streetAddress":"321 Ruston Way",
"city":"Tacoma",
"zipCode":"98402",
"county":"Pierce",
"latitude":"4.72765499",
"longitude":"-1.224687572",
"feature":" Beach, Dock Access, Fishing, Picnic Area"
},
{
"parkId":"159",
"parkName":"Irving Park",
"streetAddress":"2502 Hosmer St",
"city":"Tacoma",
"zipCode":"98405",
"county":"Pierce",
"latitude":"4.7236316",
"longitude":"-1.224621220",
"feature":" Basketball Court, Picnic Area, Playground, Soccer Field"
},
{
"parkId":"160",
"parkName":"Jack Hyde Park",
"streetAddress":"2201 Ruston Way",
"city":"Tacoma",
"zipCode":"98402",
"county":"Pierce",
"latitude":"4.72752638",
"longitude":"-1.224644025",
"feature":" Beach, Monument/Memorial, Picnic Area, Walking Trail"
},
{
"parkId":"161",
"parkName":"Jane Clark Park",
"streetAddress":"4825 N 39th St",
"city":"Tacoma",
"zipCode":"98407",
"county":"Pierce",
"latitude":"4.72851304",
"longitude":"-1.225035159",
"feature":" Baseball Field, Basketball Court, Picnic Area, Playground, Restrooms, Soccer Field"
},
{
"parkId":"162",
"parkName":"Kandle Park",
"streetAddress":"2323 N Shirley St",
"city":"Tacoma",
"zipCode":"98406",
"county":"Pierce",
"latitude":"4.72700411",
"longitude":"-1.225085643",
"feature":" Baseball Field, Basketball Court, Community Center, Community Garden, Concessions, Disabled Access, Playground, Pool, Restrooms, Skate Park, Soccer Field, Spray Park, Toddler Playground, Walking Trail"
},
{
"parkId":"163",
"parkName":"Lincoln Heights Park",
"streetAddress":"3690 S. Steele St",
"city":"Tacoma",
"zipCode":"98409",
"county":"Pierce",
"latitude":"4.7227527",
"longitude":"-1.224694570",
"feature":" Playground"
},
{
"parkId":"164",
"parkName":"Lots for Tots",
"streetAddress":"1216 South I St",
"city":"Tacoma",
"zipCode":"98405",
"county":"Pierce",
"latitude":"4.7250543",
"longitude":"-1.224489280",
"feature":" Picnic Area, Playground"
},
{
"parkId":"165",
"parkName":"Manitou Park",
"streetAddress":"4408 American Lake Blvd",
"city":"Tacoma",
"zipCode":"98409",
"county":"Pierce",
"latitude":"4.71960869",
"longitude":"-1.224984261",
"feature":" Covered Picnic Rental, Disabled Access, Horse Shoe Pits, Picnic Area, Playground, Restrooms, Toddler Playground, Walking Trail"
},
{
"parkId":"166",
"parkName":"McCarver Park",
"streetAddress":"2301 South J St",
"city":"Tacoma",
"zipCode":"98405",
"county":"Pierce",
"latitude":"4.7239643",
"longitude":"-1.224473400",
"feature":" Ampitheater, Community Garden, Disabled Access, Picnic Area, Playground, Toddler Playground, Walking Trail"
},
{
"parkId":"167",
"parkName":"Norpoint",
"streetAddress":"4818 Nassau Ave NE",
"city":"Tacoma",
"zipCode":"98422",
"county":"Pierce",
"latitude":"4.7299032",
"longitude":"-1.224044660",
"feature":" Community Center, Disabled Access, Picnic Area, Playground, Pool, Restrooms, Soccer Field, Spray Park, Toddler Playground, Walking Trail"
},
{
"parkId":"168",
"parkName":"North Slope Historic District Park",
"streetAddress":"1015 N 85th St",
"city":"Tacoma",
"zipCode":"98403",
"county":"Pierce",
"latitude":"4.72631762",
"longitude":"-1.224606136",
"feature":" Playground, Walking Trail"
},
{
"parkId":"169",
"parkName":"Northeast Tacoma Playground",
"streetAddress":"5520 29th St NE",
"city":"Tacoma",
"zipCode":"98422",
"county":"Pierce",
"latitude":"4.7281955",
"longitude":"-1.223735890",
"feature":" Baseball Field, Basketball Court, Picnic Area, Playground, Restrooms, Soccer Field"
},
{
"parkId":"170",
"parkName":"Oakland Madrona Park",
"streetAddress":"3114 S Madison St",
"city":"Tacoma",
"zipCode":"98409",
"county":"Pierce",
"latitude":"4.72320262",
"longitude":"-1.224932897",
"feature":" Basketball Court, Picnic Area, Playground, Soccer Field, Walking Trail"
},
{
"parkId":"171",
"parkName":"Optimist Park",
"streetAddress":"1330 N James St",
"city":"Tacoma",
"zipCode":"98406",
"county":"Pierce",
"latitude":"4.7263216",
"longitude":"-1.225348260",
"feature":" Baseball Field, Basketball Court, Disabled Access, Playground"
},
{
"parkId":"172",
"parkName":"Puget Park",
"streetAddress":"3111 N. Proctor St",
"city":"Tacoma",
"zipCode":"98407",
"county":"Pierce",
"latitude":"4.72759012",
"longitude":"-1.224896494",
"feature":" Disabled Access, Hiking, Picnic Area, Playground, Restrooms, Stream or Creek, Toddler Playground, Walking Trail"
},
{
"parkId":"173",
"parkName":"Rogers Park",
"streetAddress":"3151 East L St",
"city":"Tacoma",
"zipCode":"98404",
"county":"Pierce",
"latitude":"4.72331721",
"longitude":"-1.224154100",
"feature":" Basketball Court, Community Garden, Picnic Area, Playground"
},
{
"parkId":"174",
"parkName":"Roosevelt Park",
"streetAddress":"3601 E Roosevelt Ave",
"city":"Tacoma",
"zipCode":"98404",
"county":"Pierce",
"latitude":"4.7225973",
"longitude":"-1.223985860",
"feature":" Baseball Field, Basketball Court, Disabled Access, Disc golf, Picnic Area, Playground, Soccer Field, Walking Trail"
},
{
"parkId":"175",
"parkName":"Ryan's Park",
"streetAddress":"429 S. 80th St",
"city":"Tacoma",
"zipCode":"98408",
"county":"Pierce",
"latitude":"4.7184615",
"longitude":"-1.224370070",
"feature":" Picnic Area, Playground, Walking Trail"
},
{
"parkId":"176",
"parkName":"Sawyer Tot Lot",
"streetAddress":"3315 S. Sawyer St",
"city":"Tacoma",
"zipCode":"98418",
"county":"Pierce",
"latitude":"4.7229212",
"longitude":"-1.224539770",
"feature":" Basketball Court, Picnic Area, Playground"
},
{
"parkId":"177",
"parkName":"Sheridan Park",
"streetAddress":"2347 S. Sheridan Ave",
"city":"Tacoma",
"zipCode":"98405",
"county":"Pierce",
"latitude":"4.72376327",
"longitude":"-1.224528505",
"feature":" Picnic Area, Playground"
},
{
"parkId":"178",
"parkName":"South End Recreation and Adventure (SERA)",
"streetAddress":"6002 S. Adam St",
"city":"Tacoma",
"zipCode":"98409",
"county":"Pierce",
"latitude":"4.72006646",
"longitude":"-1.224902047",
"feature":" Access Fee, Baseball Field, Community Center, Disabled Access, Football Field, Multi-Purpose Room Rental, Picnic Area, Playground, Pond, Restrooms, Soccer Field, Spray Park, Tennis Court, Toddler Playground, Walking Trail"
},
{
"parkId":"179",
"parkName":"Ursich Park",
"streetAddress":"2412 N. 29th St",
"city":"Tacoma",
"zipCode":"98403",
"county":"Pierce",
"latitude":"4.72734521",
"longitude":"-1.224700414",
"feature":" Picnic Area, Walking Trail"
},
{
"parkId":"180",
"parkName":"Wapato Hills Park",
"streetAddress":"6231 S. Wapato St",
"city":"Tacoma",
"zipCode":"98409",
"county":"Pierce",
"latitude":"4.7199501",
"longitude":"-1.224677670",
"feature":" Baseball Field, Basketball Court, Biking/Bike Trail, Picnic Area, Playground, Restrooms, Soccer Field, Spray Park, Walking Trail"
},
{
"parkId":"182",
"parkName":"Lakewold Garden's",
"streetAddress":"12317 Gravelly Lake Dr SW",
"city":"Lakewood",
"zipCode":"98499",
"county":"Pierce",
"latitude":"4.71461544",
"longitude":"-1.225369351",
"feature":" Monument/Memorial, Multi-Purpose Room Rental, Walking Trail"
},
{
"parkId":"183",
"parkName":"Sticks n Stones",
"streetAddress":"Parkview Ct E",
"city":"Bonney Lake",
"zipCode":"98391",
"county":"Pierce",
"latitude":"4.7124666",
"longitude":"-1.221668730",
"feature":" Picnic Area, Playground, Toddler Playground, Walking Trail"
},
{
"parkId":"184",
"parkName":"Big Sky Park",
"streetAddress":"Village Parkway E",
"city":"Bonney Lake",
"zipCode":"98391",
"county":"Pierce",
"latitude":"4.71277194",
"longitude":"-1.221859127",
"feature":" Bocce Courts, Covered Picnic Rental, Playground, Restrooms"
},
{
"parkId":"188",
"parkName":"Charlottes Blueberry Park",
"streetAddress":"7402 East D St",
"city":"Tacoma",
"zipCode":"98404",
"county":"Pierce",
"latitude":"4.7199501",
"longitude":"-1.224677670",
"feature":" Monument/Memorial, Picnic Area, Walking Trail"
}
]


